[
    {
      "name": "Kennedy Space Center",
      "lat": 28.5721,
      "lon": -80.6480
    },
    {
      "name": "Vandenberg Space Force Base",
      "lat": 34.7420,
      "lon": -120.5724
    },
    {
      "name": "Baikonur Cosmodrome",
      "lat": 45.9200,
      "lon": 63.3420
    },
    {
      "name": "Guiana Space Centre",
      "lat": 5.2360,
      "lon": -52.7680
    },
    {
      "name": "Jiuquan Satellite Launch Center",
      "lat": 40.9600,
      "lon": 100.2980
    },
    {
      "name": "Tanegashima Space Center",
      "lat": 30.4000,
      "lon": 130.9700
    },
    {
      "name": "Satish Dhawan Space Centre",
      "lat": 13.7190,
      "lon": 80.2300
    },
    {
      "name": "Rocket Lab Launch Complex 1",
      "lat": -39.2628,
      "lon": 177.8644
    },
    {
      "name": "SpaceX Starbase",
      "lat": 25.9972,
      "lon": -97.1566
    }
  ]
  